[
    {
        "name": "Yosemite National Park",
        "coords": {"lat": 37.8651, "lng":-119.5383},
        "type": "natural",
        "markerShowing": true,
        "infoWindowShowing": false,
        "photoId": 43316542794,
        "continent": "North America",
        "photoSrc": ""
    },
    {
        "name": "Machu Picchu", 
        "coords": {"lat": -13.1631, "lng": -72.5450},
        "type": "mixed",
        "markerShowing": true,
        "infoWindowShowing": false,
        "photoId": 29051779417,
        "continent": "South America",
        "photoSrc": ""
    },
    {
        "name": "Serengeti National Park", 
        "coords": {"lat": -2.333333, "lng": 34.833332},
        "type": "natural",
        "markerShowing": true,
        "infoWindowShowing": false,
        "photoId": 42211340740,
        "continent": "Africa",
        "photoSrc": ""
    },
    {
        "name": "Palau de la Musica Catalana", 
        "coords": {"lat": 41.3876, "lng": 2.1753},
        "type": "cultural",
        "markerShowing": true,
        "infoWindowShowing": false,
        "photoId": 35203823512,
        "continent": "Europe",
        "photoSrc": ""
    },
    {
        "name": "Great Barrier Reef", 
        "coords": {"lat": -18.156290, "lng": 147.485962},
        "type": "natural",
        "markerShowing": true,
        "infoWindowShowing": false,
        "photoId": 43524399412,
        "continent": "Australia",
        "photoSrc": ""
    },
    {
        "name": "Yazd", 
        "coords": {"lat": 31.897423, "lng": 54.356857},
        "type": "cultural",
        "markerShowing": true,
        "infoWindowShowing": false,
        "photoId": 42165434924,
        "continent": "Asia",
        "photoSrc": ""
    }
]